[
  {
    "id": "dest024",
    "activitiesDescription": "Foto-foto, camping, menikmati pemandangan pantai.",
    "address": "Sitiarjo, Malang",
    "availability": "available",
    "description": "Pantai dengan ombak besar dan batu karang unik.",
    "openingHours": "06:00 - 18:00",
    "tags": ["adventure", "beach", "nature"],
    "ticketPrice": 15000,
    "title": "Pantai Goa Cina"
  },
  {
    "id": "dest001",
    "activitiesDescription": "Tur museum, berfoto dengan koleksi kendaraan antik, edukasi sejarah transportasi.",
    "address": "Jl. Terusan Sultan Agung No.2, Batu, Malang",
    "availability": "available",
    "description": "Museum transportasi terlengkap di Asia dengan koleksi kendaraan dari berbagai era dan negara.",
    "openingHours": "12:00 - 20:00",
    "tags": ["education", "museum", "family"],
    "ticketPrice": 100000,
    "title": "Museum Angkut"
  },
  {
    "id": "dest002",
    "activitiesDescription": "Bermain wahana, melihat hewan di kebun binatang, berkeliling taman.",
    "address": "Jl. Oro-Oro Ombo No.9, Batu, Malang",
    "availability": "available",
    "description": "Taman wisata dengan kebun binatang dan museum satwa yang edukatif untuk keluarga.",
    "openingHours": "08:30 - 17:00",
    "tags": ["family", "education", "zoo"],
    "ticketPrice": 120000,
    "title": "Jatim Park 2"
  },
  {
    "id": "dest003",
    "activitiesDescription": "Trekking, menikmati air terjun, berfoto dengan latar alam.",
    "address": "Jl. Coban Rondo, Pandesari, Pujon, Malang",
    "availability": "available",
    "description": "Air terjun yang indah dengan suasana sejuk dan pemandangan yang memukau.",
    "openingHours": "07:00 - 17:00",
    "tags": ["nature", "adventure", "tour"],
    "ticketPrice": 25000,
    "title": "Coban Rondo"
  },
  {
    "id": "dest004",
    "activitiesDescription": "Sunrise tour, trekking ke kawah, fotografi landscape.",
    "address": "Taman Nasional Bromo Tengger Semeru, Probolinggo",
    "availability": "available",
    "description": "Taman nasional dengan pemandangan gunung berapi yang spektakuler dan sunrise yang menakjubkan.",
    "openingHours": "00:00 - 23:59",
    "tags": ["adventure", "nature", "tour"],
    "ticketPrice": 34000,
    "title": "Gunung Bromo"
  },
  {
    "id": "dest005",
    "activitiesDescription": "Makan soto ayam, nasi goreng, dan menu Indonesia lainnya.",
    "address": "Jl. Kawi No.31, Malang",
    "availability": "available",
    "description": "Restoran dengan masakan Indonesia yang lezat dan suasana yang nyaman.",
    "openingHours": "08:00 - 22:00",
    "tags": ["culinary", "food", "restaurant"],
    "ticketPrice": 50000,
    "title": "Warung Makan Barokah"
  },
  {
    "id": "dest006",
    "activitiesDescription": "Trekking, menikmati kebun bunga, berfoto di air terjun.",
    "address": "Jl. Coban Talun, Tulungrejo, Bumiaji, Batu",
    "availability": "available",
    "description": "Air terjun dengan trekking yang menantang dan kebun bunga yang indah.",
    "openingHours": "07:00 - 17:00",
    "tags": ["nature", "adventure", "tour"],
    "ticketPrice": 25000,
    "title": "Coban Talun"
  },
  {
    "id": "dest007",
    "activitiesDescription": "Wisata kuliner, belanja oleh-oleh, berfoto di kampung heritage.",
    "address": "Jl. Majapahit, Malang",
    "availability": "available",
    "description": "Kampung heritage dengan berbagai kuliner khas Malang dan spot foto Instagramable.",
    "openingHours": "09:00 - 21:00",
    "tags": ["culinary", "shopping", "heritage"],
    "ticketPrice": 0,
    "title": "Heritage Kajoetangan"
  },
  {
    "id": "dest008",
    "activitiesDescription": "Berenang, bersantai di taman, menikmati pemandangan pegunungan.",
    "address": "Jl. Raya Selecta No.1, Tulungrejo, Batu",
    "availability": "available",
    "description": "Taman wisata dengan kolam renang air panas dan taman bunga yang indah.",
    "openingHours": "07:00 - 17:00",
    "tags": ["nature", "family", "tour"],
    "ticketPrice": 35000,
    "title": "Selecta"
  },
  {
    "id": "dest009",
    "activitiesDescription": "Makan bakso, mie ayam, dan menu lainnya dengan suasana santai.",
    "address": "Jl. Gajayana No.38, Malang",
    "availability": "available",
    "description": "Rumah makan bakso legendaris dengan cita rasa yang khas dan porsi melimpah.",
    "openingHours": "10:00 - 22:00",
    "tags": ["culinary", "food"],
    "ticketPrice": 35000,
    "title": "Bakso President"
  },
  {
    "id": "dest010",
    "activitiesDescription": "Belanja produk apel, jus apel, dan oleh-oleh khas Malang.",
    "address": "Jl. Raya Selecta, Batu",
    "availability": "available",
    "description": "Pusat oleh-oleh apel dan produk turunannya yang khas dari Malang.",
    "openingHours": "08:00 - 18:00",
    "tags": ["shopping", "souvenir"],
    "ticketPrice": 0,
    "title": "Toko Apel Malang"
  },
  {
    "id": "dest011",
    "activitiesDescription": "Bermain di wahana malam, menikmati pertunjukan, kuliner malam.",
    "address": "Jl. Oro-Oro Ombo, Batu",
    "availability": "available",
    "description": "Taman hiburan malam dengan berbagai wahana dan pertunjukan yang menarik.",
    "openingHours": "15:00 - 22:00",
    "tags": ["family", "entertainment"],
    "ticketPrice": 75000,
    "title": "Batu Night Spectacular"
  },
  {
    "id": "dest012",
    "activitiesDescription": "Petik apel langsung, edukasi pertanian, menikmati udara sejuk.",
    "address": "Jl. Raya Tulungrejo, Batu",
    "availability": "available",
    "description": "Kebun apel dengan aktivitas petik apel langsung dan edukasi pertanian.",
    "openingHours": "07:00 - 17:00",
    "tags": ["tour", "education", "nature"],
    "ticketPrice": 20000,
    "title": "Wisata Petik Apel"
  },
  {
    "id": "dest013",
    "activitiesDescription": "Berenang, main di pantai, menikmati sunset.",
    "address": "Sitiarjo, Sumbermanjing Wetan, Malang",
    "availability": "available",
    "description": "Pantai indah dengan pura di atas pulau kecil, mirip Tanah Lot di Bali.",
    "openingHours": "06:00 - 18:00",
    "tags": ["beach", "nature"],
    "ticketPrice": 15000,
    "title": "Pantai Balekambang"
  },
  {
    "id": "dest014",
    "activitiesDescription": "Belanja oleh-oleh khas Malang, jajan pasar, wisata kuliner.",
    "address": "Jl. Merdeka, Malang",
    "availability": "available",
    "description": "Pusat oleh-oleh khas Malang dengan berbagai pilihan produk lokal.",
    "openingHours": "08:00 - 21:00",
    "tags": ["shopping", "souvenir", "culinary"],
    "ticketPrice": 0,
    "title": "Pasar Bunga Splendid"
  },
  {
    "id": "dest015",
    "activitiesDescription": "Makan rawon, soto, dan menu khas Madura lainnya.",
    "address": "Jl. Panglima Sudirman, Malang",
    "availability": "available",
    "description": "Kuliner rawon hitam legendaris yang buka 24 jam dengan rasa yang nikmat.",
    "openingHours": "00:00 - 23:59",
    "tags": ["culinary", "food"],
    "ticketPrice": 40000,
    "title": "Rawon Setan"
  }
]
